{
    "type": "FeatureCollection",
    "name": "DG Khan.xlsx",
    "crs": { "type": "name", "properties": { "name": "urn:ogc:def:crs:OGC:1.3:CRS84" } },
    "features": [
    { "type": "Feature", "properties": { "Name": "GGPS JOOTAR", "Sr__No": 217.0, "District": "D.G Khan", "Village": "JOOTAR", "EMIS_Code": 32120451.0, "Latitude": 30.173581, "Longitude": 71.511009, "Remarks": "N/A", "Map_Name": "N/A", "EMIS Code": 32120451, "Map Name": "N/A", "No": 217 }, "geometry": { "type": "Point", "coordinates": [ 71.511009, 30.173581 ] } },
    { "type": "Feature", "properties": { "Name": "GGPS SHERAN WALIDANI", "Sr__No": 196.0, "District": "D.G Khan", "Village": "SHERAN WALIDANI", "EMIS_Code": 32110492.0, "Latitude": 29.950853, "Longitude": 70.006369, "Remarks": "N/A", "Map_Name": "N/A", "EMIS Code": 32110492, "Map Name": "N/A", "No": 196 }, "geometry": { "type": "Point", "coordinates": [ 70.006369, 29.950853 ] } },
    { "type": "Feature", "properties": { "Name": "GGMPS ANARI", "Sr__No": 197.0, "District": "D.G Khan", "Village": "ANARI", "EMIS_Code": 32111252.0, "Latitude": 29.921612, "Longitude": 70.007757, "Remarks": "N/A", "Map_Name": "N/A", "EMIS Code": 32111252, "Map Name": "N/A", "No": 197 }, "geometry": { "type": "Point", "coordinates": [ 70.007757, 29.921612 ] } },
    { "type": "Feature", "properties": { "Name": "GPS DALSAR", "Sr__No": 198.0, "District": "D.G Khan", "Village": "DALSAR", "EMIS_Code": 32110498.0, "Latitude": 29.922332, "Longitude": 69.954946, "Remarks": "N/A", "Map_Name": "N/A", "EMIS Code": 32110498, "Map Name": "N/A", "No": 198 }, "geometry": { "type": "Point", "coordinates": [ 69.954946, 29.922332 ] } },
    { "type": "Feature", "properties": { "Name": "GPS GHARI PUSHT", "Sr__No": 199.0, "District": "D.G Khan", "Village": "GHARI PUSHT", "EMIS_Code": 32110507.0, "Latitude": 30.008459, "Longitude": 70.015971, "Remarks": "N/A", "Map_Name": "N/A", "EMIS Code": 32110507, "Map Name": "N/A", "No": 199 }, "geometry": { "type": "Point", "coordinates": [ 70.015971, 30.008459 ] } },
    { "type": "Feature", "properties": { "Name": "GPS PISHI LEGHARI", "Sr__No": 200.0, "District": "D.G Khan", "Village": "PISHI LEGHARI", "EMIS_Code": 32111215.0, "Latitude": 30.243028, "Longitude": 70.37447, "Remarks": "N/A", "Map_Name": "N/A", "EMIS Code": 32111215, "Map Name": "N/A", "No": 200 }, "geometry": { "type": "Point", "coordinates": [ 70.37447, 30.243028 ] } },
    { "type": "Feature", "properties": { "Name": "GPS BULK SAR", "Sr__No": 201.0, "District": "D.G Khan", "Village": "BULK SAR", "EMIS_Code": 32110518.0, "Latitude": 30.194764, "Longitude": 70.217099, "Remarks": "N/A", "Map_Name": "N/A", "EMIS Code": 32110518, "Map Name": "N/A", "No": 201 }, "geometry": { "type": "Point", "coordinates": [ 70.217099, 30.194764 ] } },
    { "type": "Feature", "properties": { "Name": "GPS BASTI KHUDA BAKHSH", "Sr__No": 202.0, "District": "D.G Khan", "Village": "BASTI KHUDA BAKHSH", "EMIS_Code": 32110524.0, "Latitude": 30.104254, "Longitude": 70.197814, "Remarks": "Not looks like school building", "Map_Name": "N/A", "EMIS Code": 32110524, "Map Name": "N/A", "No": 202 }, "geometry": { "type": "Point", "coordinates": [ 70.197814, 30.104254 ] } },
    { "type": "Feature", "properties": { "Name": "GPS RAIKHO LOPE", "Sr__No": 203.0, "District": "D.G Khan", "Village": "RAIKHO LOPE", "EMIS_Code": 32110527.0, "Latitude": 30.045079, "Longitude": 70.235359, "Remarks": "N/A", "Map_Name": "N/A", "EMIS Code": 32110527, "Map Name": "N/A", "No": 203 }, "geometry": { "type": "Point", "coordinates": [ 70.235359, 30.045079 ] } },
    { "type": "Feature", "properties": { "Name": "GPS BUZ KUSHI", "Sr__No": 204.0, "District": "D.G Khan", "Village": "BUZ KUSHI", "EMIS_Code": 32111173.0, "Latitude": 29.934353, "Longitude": 69.973356, "Remarks": "N/A", "Map_Name": "N/A", "EMIS Code": 32111173, "Map Name": "N/A", "No": 204 }, "geometry": { "type": "Point", "coordinates": [ 69.973356, 29.934353 ] } },
    { "type": "Feature", "properties": { "Name": "GPS BASTI ALI MUHAMMAD NEW", "Sr__No": 205.0, "District": "D.G Khan", "Village": "BASTI ALI MUHAMMAD", "EMIS_Code": 32111314.0, "Latitude": 30.125936, "Longitude": 70.245737, "Remarks": "N/A", "Map_Name": "N/A", "EMIS Code": 32111314, "Map Name": "N/A", "No": 205 }, "geometry": { "type": "Point", "coordinates": [ 70.245737, 30.125936 ] } },
    { "type": "Feature", "properties": { "Name": "GPS LUNDANI LOPE", "Sr__No": 206.0, "District": "D.G Khan", "Village": "LUNDANI LOPE", "EMIS_Code": 32111191.0, "Latitude": 30.146533, "Longitude": 70.214707, "Remarks": "N/A", "Map_Name": "N/A", "EMIS Code": 32111191, "Map Name": "N/A", "No": 206 }, "geometry": { "type": "Point", "coordinates": [ 70.214707, 30.146533 ] } },
    { "type": "Feature", "properties": { "Name": "GPS TERKHI THAL", "Sr__No": 207.0, "District": "D.G Khan", "Village": "TERKHI THAL", "EMIS_Code": 32110499.0, "Latitude": 29.989527, "Longitude": 69.97455, "Remarks": "N/A", "Map_Name": "N/A", "EMIS Code": 32110499, "Map Name": "N/A", "No": 207 }, "geometry": { "type": "Point", "coordinates": [ 69.97455, 29.989527 ] } },
    { "type": "Feature", "properties": { "Name": "GPS BAGH ALI MOLE", "Sr__No": 208.0, "District": "D.G Khan", "Village": "BAGH ALI MOLE", "EMIS_Code": 32110506.0, "Latitude": 30.008414, "Longitude": 70.015925, "Remarks": "N/A", "Map_Name": "N/A", "EMIS Code": 32110506, "Map Name": "N/A", "No": 208 }, "geometry": { "type": "Point", "coordinates": [ 70.015925, 30.008414 ] } },
    { "type": "Feature", "properties": { "Name": "GPS SYED LOOP", "Sr__No": 209.0, "District": "D.G Khan", "Village": "SYED LOOP", "EMIS_Code": 32111244.0, "Latitude": 30.00004, "Longitude": 70.028029, "Remarks": "Not looks like school building", "Map_Name": "N/A", "EMIS Code": 32111244, "Map Name": "N/A", "No": 209 }, "geometry": { "type": "Point", "coordinates": [ 70.028029, 30.00004 ] } },
    { "type": "Feature", "properties": { "Name": "GGPS BASTI SADAAT", "Sr__No": 211.0, "District": "D.G Khan", "Village": "BASTI SADAAT", "EMIS_Code": 32120725.0, "Latitude": 30.257402, "Longitude": 70.306222, "Remarks": "Not looks like school building", "Map_Name": "N/A", "EMIS Code": 32120725, "Map Name": "N/A", "No": 211 }, "geometry": { "type": "Point", "coordinates": [ 70.306222, 30.257402 ] } },
    { "type": "Feature", "properties": { "Name": "GPS GOJJ DAGGAR", "Sr__No": 212.0, "District": "D.G Khan", "Village": "GOJJ DAGGAR", "EMIS_Code": 32120742.0, "Latitude": 30.248634, "Longitude": 70.254251, "Remarks": "Available", "Map_Name": "Govt Primary School RaiSandh", "EMIS Code": 32120742, "Map Name": "Govt Primary School RaiSandh", "No": 212 }, "geometry": { "type": "Point", "coordinates": [ 70.254251, 30.248634 ] } },
    { "type": "Feature", "properties": { "Name": "GPS NOUZANI MUBARKI", "Sr__No": 213.0, "District": "D.G Khan", "Village": "NOUZANI MUBARKI", "EMIS_Code": 32120744.0, "Latitude": 30.242346, "Longitude": 70.328747, "Remarks": "Not looks like school building", "Map_Name": "N/A", "EMIS Code": 32120744, "Map Name": "N/A", "No": 213 }, "geometry": { "type": "Point", "coordinates": [ 70.328747, 30.242346 ] } },
    { "type": "Feature", "properties": { "Name": "GPS BAIL BATTAR", "Sr__No": 214.0, "District": "D.G Khan", "Village": "BAIL BATTAR", "EMIS_Code": 32120380.0, "Latitude": 30.264094, "Longitude": 70.227597, "Remarks": "N/A", "Map_Name": "N/A", "EMIS Code": 32120380, "Map Name": "N/A", "No": 214 }, "geometry": { "type": "Point", "coordinates": [ 70.227597, 30.264094 ] } },
    { "type": "Feature", "properties": { "Name": "GPS SIR THOKH", "Sr__No": 215.0, "District": "D.G Khan", "Village": "SIR THOKH", "EMIS_Code": 32120383.0, "Latitude": 30.298705, "Longitude": 70.235172, "Remarks": "N/A", "Map_Name": "N/A", "EMIS Code": 32120383, "Map Name": "N/A", "No": 215 }, "geometry": { "type": "Point", "coordinates": [ 70.235172, 30.298705 ] } },
    { "type": "Feature", "properties": { "Name": "GGPS DADA KHOH", "Sr__No": 218.0, "District": "D.G Khan", "Village": "DADA KHOH", "EMIS_Code": 32120693.0, "Latitude": 30.304682, "Longitude": 70.214745, "Remarks": "N/A", "Map_Name": "N/A", "EMIS Code": 32120693, "Map Name": "N/A", "No": 218 }, "geometry": { "type": "Point", "coordinates": [ 70.214745, 30.304682 ] } },
    { "type": "Feature", "properties": { "Name": "GPS DUB JAHNAANI", "Sr__No": 219.0, "District": "D.G Khan", "Village": "DUB JAHNAANI", "EMIS_Code": 32120842.0, "Latitude": 30.264212, "Longitude": 70.202551, "Remarks": "N/A", "Map_Name": "N/A", "EMIS Code": 32120842, "Map Name": "N/A", "No": 219 }, "geometry": { "type": "Point", "coordinates": [ 70.202551, 30.264212 ] } },
    { "type": "Feature", "properties": { "Name": "GPS CHEEK", "Sr__No": 222.0, "District": "D.G Khan", "Village": "CHEEK", "EMIS_Code": 32120382.0, "Latitude": 30.31653, "Longitude": 70.182646, "Remarks": "N/A", "Map_Name": "N/A", "EMIS Code": 32120382, "Map Name": "N/A", "No": 222 }, "geometry": { "type": "Point", "coordinates": [ 70.182646, 30.31653 ] } },
    { "type": "Feature", "properties": { "Name": "GPS DADA KOH", "Sr__No": 223.0, "District": "D.G Khan", "Village": "DADA KOH", "EMIS_Code": 32120384.0, "Latitude": 30.282555, "Longitude": 70.212085, "Remarks": "N/A", "Map_Name": "N/A", "EMIS Code": 32120384, "Map Name": "N/A", "No": 223 }, "geometry": { "type": "Point", "coordinates": [ 70.212085, 30.282555 ] } },
    { "type": "Feature", "properties": { "Name": "GPS KHOTTI THAL", "Sr__No": 224.0, "District": "D.G Khan", "Village": "KHOTTI THAL", "EMIS_Code": 32120385.0, "Latitude": 30.256659, "Longitude": 70.305837, "Remarks": "N/A", "Map_Name": "N/A", "EMIS Code": 32120385, "Map Name": "N/A", "No": 224 }, "geometry": { "type": "Point", "coordinates": [ 70.305837, 30.256659 ] } },
    { "type": "Feature", "properties": { "Name": "GPS ZHURAFF", "Sr__No": 225.0, "District": "D.G Khan", "Village": "ZHURAFF", "EMIS_Code": 32120381.0, "Latitude": 30.291833, "Longitude": 70.215603, "Remarks": "N/A", "Map_Name": "N/A", "EMIS Code": 32120381, "Map Name": "N/A", "No": 225 }, "geometry": { "type": "Point", "coordinates": [ 70.215603, 30.291833 ] } },
    { "type": "Feature", "properties": { "Name": "GPS Boray Wala PO Sakhi Sarwar", "Sr__No": 226.0, "District": "D.G Khan", "Village": "Boray Wala PO Sakhi Sarwar", "EMIS_Code": 32130177.0, "Latitude": 30.86269, "Longitude": 73.44423, "Remarks": "Not looks like school building", "Map_Name": "N/A", "EMIS Code": 32130177, "Map Name": "N/A", "No": 226 }, "geometry": { "type": "Point", "coordinates": [ 73.44423, 30.86269 ] } },
    { "type": "Feature", "properties": { "Name": "GPS Dogi Wala PO Drahma", "Sr__No": 227.0, "District": "D.G Khan", "Village": "Dogi Wala PO Drahma", "EMIS_Code": 32110244.0, "Latitude": 30.12329, "Longitude": 70.742096, "Remarks": "N/A", "Map_Name": "N/A", "EMIS Code": 32110244, "Map Name": "N/A", "No": 227 }, "geometry": { "type": "Point", "coordinates": [ 70.742096, 30.12329 ] } }
    ]
    }
    