{
"type": "FeatureCollection",
"name": "Muzaffargarh.xlsx",
"crs": { "type": "name", "properties": { "name": "urn:ogc:def:crs:OGC:1.3:CRS84" } },
"features": [
{ "type": "Feature", "properties": { "Name": "GGPS Jang Wala", "Sr__No": 347.0, "District": "Muzaffargarh", "Village": "Jang Wala", "EMIS_Code": 32330580.0, "Latitude": 29.856428, "Longitude": 71.037993, "Remarks": "N/A", "Map_Name": "N/A", "EMIS Code": 32330580, "Map Name": "N/A", "No": 347 }, "geometry": { "type": "Point", "coordinates": [ 71.037993, 29.856428 ] } },
{ "type": "Feature", "properties": { "Name": "GPS MC No. 5 Muzaffargarh", "Sr__No": 348.0, "District": "Muzaffargarh", "Village": "MC No. 5 Muzaffargarh", "EMIS_Code": 32330306.0, "Latitude": 30.077139, "Longitude": 71.193777, "Remarks": "Available", "Map_Name": "Govt MC Primary School No. 5", "EMIS Code": 32330306, "Map Name": "Govt MC Primary School No. 5", "No": 348 }, "geometry": { "type": "Point", "coordinates": [ 71.193777, 30.077139 ] } },
{ "type": "Feature", "properties": { "Name": "GPS Basti Korai", "Sr__No": 349.0, "District": "Muzaffargarh", "Village": "Basti Korai", "EMIS_Code": 32330323.0, "Latitude": 29.938882, "Longitude": 70.950352, "Remarks": "N/A", "Map_Name": "N/A", "EMIS Code": 32330323, "Map Name": "N/A", "No": 349 }, "geometry": { "type": "Point", "coordinates": [ 70.950352, 29.938882 ] } },
{ "type": "Feature", "properties": { "Name": "GGPS Garhi Qureishi", "Sr__No": 350.0, "District": "Muzaffargarh", "Village": "Garhi Qureishi", "EMIS_Code": 32320525.0, "Latitude": 30.449617, "Longitude": 70.963647, "Remarks": "Available", "Map_Name": "Govt. Girls Primary School, Garhi Sharif", "EMIS Code": 32320525, "Map Name": "Govt. Girls Primary School, Garhi Sharif", "No": 350 }, "geometry": { "type": "Point", "coordinates": [ 70.963647, 30.449617 ] } },
{ "type": "Feature", "properties": { "Name": "GGPS Haji Wala No. 2", "Sr__No": 351.0, "District": "Muzaffargarh", "Village": "Haji Wala No. 2", "EMIS_Code": 32320331.0, "Latitude": 30.217309, "Longitude": 71.041648, "Remarks": "N/A", "Map_Name": "N/A", "EMIS Code": 32320331, "Map Name": "N/A", "No": 351 }, "geometry": { "type": "Point", "coordinates": [ 71.041648, 30.217309 ] } },
{ "type": "Feature", "properties": { "Name": "GGPS Sahool Wala", "Sr__No": 352.0, "District": "Muzaffargarh", "Village": "Sahool Wala", "EMIS_Code": 32320913.0, "Latitude": 30.29449, "Longitude": 70.941911, "Remarks": "N/A", "Map_Name": "N/A", "EMIS Code": 32320913, "Map Name": "N/A", "No": 352 }, "geometry": { "type": "Point", "coordinates": [ 70.941911, 30.29449 ] } },
{ "type": "Feature", "properties": { "Name": "GPS Adda Hussain Abad", "Sr__No": 353.0, "District": "Muzaffargarh", "Village": "Adda Hussain Abad", "EMIS_Code": 32310260.0, "Latitude": 29.304801, "Longitude": 70.872209, "Remarks": "N/A", "Map_Name": "N/A", "EMIS Code": 32310260, "Map Name": "N/A", "No": 353 }, "geometry": { "type": "Point", "coordinates": [ 70.872209, 29.304801 ] } }
]
}
