{
"type": "FeatureCollection",
"name": "Pakpattan.xlsx",
"crs": { "type": "name", "properties": { "name": "urn:ogc:def:crs:OGC:1.3:CRS84" } },
"features": [
{ "type": "Feature", "properties": { "Name": "GGPS 99 EB", "Sr__No": 399.0, "District": "Pakpattan", "Village": "99 EB", "EMIS_Code": 39220420.0, "Latitude": 30.189574, "Longitude": 73.020587, "Remarks": "Available", "Map_Name": "Govt Girls Primary School", "EMIS Code": 39220420, "Map Name": "Govt Girls Primary School", "No": 399 }, "geometry": { "type": "Point", "coordinates": [ 73.020587, 30.189574 ] } },
{ "type": "Feature", "properties": { "Name": "GGCMS 49/EB", "Sr__No": 400.0, "District": "Pakpattan", "Village": "49/EB", "EMIS_Code": 39220350.0, "Latitude": 30.195912, "Longitude": 30.195912, "Remarks": "Wrong Longitude", "Map_Name": "N/A", "EMIS Code": 39220350, "Map Name": "N/A", "No": 400 }, "geometry": { "type": "Point", "coordinates": [ 30.195912, 30.195912 ] } },
{ "type": "Feature", "properties": { "Name": "GPS Hela Kalra", "Sr__No": 401.0, "District": "Pakpattan", "Village": "Hela Kalra", "EMIS_Code": 39210275.0, "Latitude": 30.542388, "Longitude": 73.41777, "Remarks": "Not looks like school building", "Map_Name": "N/A", "EMIS Code": 39210275, "Map Name": "N/A", "No": 401 }, "geometry": { "type": "Point", "coordinates": [ 73.41777, 30.542388 ] } },
{ "type": "Feature", "properties": { "Name": "GPS Chak No 81 D", "Sr__No": 402.0, "District": "Pakpattan", "Village": "Chak No 81 D", "EMIS_Code": 39210228.0, "Latitude": 30.541236, "Longitude": 73.203144, "Remarks": "Available", "Map_Name": "Govt Primary School (Boys), CHAK NO. 81/D", "EMIS Code": 39210228, "Map Name": "Govt Primary School (Boys), CHAK NO. 81/D", "No": 402 }, "geometry": { "type": "Point", "coordinates": [ 73.203144, 30.541236 ] } },
{ "type": "Feature", "properties": { "Name": "GPS Chak No 104 D", "Sr__No": 403.0, "District": "Pakpattan", "Village": "Chak No 104 D", "EMIS_Code": 39210516.0, "Latitude": 30.445223, "Longitude": 73.113042, "Remarks": "N/A", "Map_Name": "N/A", "EMIS Code": 39210516, "Map Name": "N/A", "No": 403 }, "geometry": { "type": "Point", "coordinates": [ 73.113042, 30.445223 ] } }
]
}
