{
"type": "FeatureCollection",
"name": "Sahiwal.xlsx",
"crs": { "type": "name", "properties": { "name": "urn:ogc:def:crs:OGC:1.3:CRS84" } },
"features": [
{ "type": "Feature", "properties": { "Name": "GPS 88/6-R East", "Sr__No": 428.0, "District": "Sahiwal", "Village": "88/6-R East", "EMIS_Code": 39120231.0, "Latitude": 30.721925, "Longitude": 73.094182, "Remarks": "Available", "Map_Name": "Govt Primary School (Boys), 88/6-R EAST", "EMIS Code": 39120231, "Map Name": "Govt Primary School (Boys), 88/6-R EAST", "No": 428 }, "geometry": { "type": "Point", "coordinates": [ 73.094182, 30.721925 ] } },
{ "type": "Feature", "properties": { "Name": "GPS 57/5L No 1", "Sr__No": 429.0, "District": "Sahiwal", "Village": "CHAK 57/5L No 1", "EMIS_Code": 39120269.0, "Latitude": 30.690168, "Longitude": 73.273214, "Remarks": "N/A", "Map_Name": "N/A", "EMIS Code": 39120269, "Map Name": "N/A", "No": 429 }, "geometry": { "type": "Point", "coordinates": [ 73.273214, 30.690168 ] } },
{ "type": "Feature", "properties": { "Name": "GGPS 112/9L Chakki Wisran", "Sr__No": 430.0, "District": "Sahiwal", "Village": "CHAK 112/9L Chakki Wisran", "EMIS_Code": 39120803.0, "Latitude": 30.50571, "Longitude": 73.120267, "Remarks": "Available", "Map_Name": "Govt Girls Primary School, 112/9-L", "EMIS Code": 39120803, "Map Name": "Govt Girls Primary School, 112/9-L", "No": 430 }, "geometry": { "type": "Point", "coordinates": [ 73.120267, 30.50571 ] } },
{ "type": "Feature", "properties": { "Name": "GPS 66/5L", "Sr__No": 431.0, "District": "Sahiwal", "Village": "CHAK 66/5L", "EMIS_Code": 39120276.0, "Latitude": 30.655119, "Longitude": 73.2198, "Remarks": "N/A", "Map_Name": "N/A", "EMIS Code": 39120276, "Map Name": "N/A", "No": 431 }, "geometry": { "type": "Point", "coordinates": [ 73.2198, 30.655119 ] } },
{ "type": "Feature", "properties": { "Name": "GGPS Akbar Shah", "Sr__No": 432.0, "District": "Sahiwal", "Village": "CHAK Akbar Shah", "EMIS_Code": 39120650.0, "Latitude": 30.816648, "Longitude": 73.104377, "Remarks": "Available", "Map_Name": "Govt Girls Primary School, AKBAR SHAH", "EMIS Code": 39120650, "Map Name": "Govt Girls Primary School, AKBAR SHAH", "No": 432 }, "geometry": { "type": "Point", "coordinates": [ 73.104377, 30.816648 ] } },
{ "type": "Feature", "properties": { "Name": "GPS 77/5L", "Sr__No": 433.0, "District": "Sahiwal", "Village": "CHAK 77/5L", "EMIS_Code": 39120290.0, "Latitude": 30.594613, "Longitude": 30.594613, "Remarks": "Wrong Longitude", "Map_Name": "N/A", "EMIS Code": 39120290, "Map Name": "N/A", "No": 433 }, "geometry": { "type": "Point", "coordinates": [ 30.594613, 30.594613 ] } },
{ "type": "Feature", "properties": { "Name": "GGPS Chenna Karmali", "Sr__No": 434.0, "District": "Sahiwal", "Village": "CHAK Chenna Karmali", "EMIS_Code": 39120475.0, "Latitude": 30.697962, "Longitude": 72.953183, "Remarks": "Available", "Map_Name": "Govt Girls Primary School, CHENNA KARAMALI", "EMIS Code": 39120475, "Map Name": "Govt Girls Primary School, CHENNA KARAMALI", "No": 434 }, "geometry": { "type": "Point", "coordinates": [ 72.953183, 30.697962 ] } },
{ "type": "Feature", "properties": { "Name": "GGPS 124/9L", "Sr__No": 435.0, "District": "Sahiwal", "Village": "CHAK 124/9L", "EMIS_Code": 39120672.0, "Latitude": 30.493304, "Longitude": 73.022085, "Remarks": "Available", "Map_Name": "Govt Girls Primary School, 124/9-L", "EMIS Code": 39120672, "Map Name": "Govt Girls Primary School, 124/9-L", "No": 435 }, "geometry": { "type": "Point", "coordinates": [ 73.022085, 30.493304 ] } },
{ "type": "Feature", "properties": { "Name": "GSP Khanana Mian", "Sr__No": 436.0, "District": "Sahiwal", "Village": "CHAK Khanana Mian", "EMIS_Code": 39110261.0, "Latitude": 30.689557, "Longitude": 72.806874, "Remarks": "N/A", "Map_Name": "N/A", "EMIS Code": 39110261, "Map Name": "N/A", "No": 436 }, "geometry": { "type": "Point", "coordinates": [ 72.806874, 30.689557 ] } },
{ "type": "Feature", "properties": { "Name": "GGPS 87-A/6R Mandhali", "Sr__No": 437.0, "District": "Sahiwal", "Village": "CHAK 87-A/6R Mandhali", "EMIS_Code": 39120467.0, "Latitude": 30.709427, "Longitude": 73.081182, "Remarks": "Available", "Map_Name": "Govt Girls Primary School", "EMIS Code": 39120467, "Map Name": "Govt Girls Primary School", "No": 437 }, "geometry": { "type": "Point", "coordinates": [ 73.081182, 30.709427 ] } }
]
}
